{
"type": "FeatureCollection",
"crs": { "type": "name", "properties": { "name": "urn:ogc:def:crs:OGC:1.3:CRS84" } },
                                                                                
"features": [
{ "type": "Feature", "properties": { "id": "NULL", "name": "NULL" }, "geometry": { "type": "Point", "coordinates": [ 0,0 ] } },
{ "type": "Feature", "properties": { "id": "panjgur", "name": "Panjgur" }, "geometry": { "type": "Point", "coordinates": [ 64.108779575378122, 26.971176540590953 ] } },
{ "type": "Feature", "properties": { "id": "gandava", "name": "Gandava" }, "geometry": { "type": "Point", "coordinates": [ 67.470657, 28.61685 ] } },
{ "type": "Feature", "properties": { "id": "khuzdar", "name": "Khuzdar" }, "geometry": { "type": "Point", "coordinates": [ 66.616667, 27.8 ] } },
{ "type": "Feature", "properties": { "id": "brahmanabad", "name": "Brahmanabad in Sindh" }, "geometry": { "type": "Point", "coordinates": [ 68.776605, 25.880922 ] } },
{ "type": "Feature", "properties": { "id": "sarbaz", "name": "Sarbaz" }, "geometry": { "type": "Point", "coordinates": [ 61.256391, 26.630699 ] } },
{ "type": "Feature", "properties": { "id": "fahraj", "name": "Fahraj" }, "geometry": { "type": "Point", "coordinates": [ 60.59729764854044, 27.171705277418145 ] } },
{ "type": "Feature", "properties": { "id": "rask", "name": "Rask" }, "geometry": { "type": "Point", "coordinates": [ 61.399009, 26.236817 ] } }
]
}
